{
    "type": "FeatureCollection",
    "features": [
        {
            "type": "Feature",
            "geometry": {
                "type": "Point",
                "coordinates": [
                    117.7166,
                    31.64696
                ]
            },
            "properties": {
                "city": "Chaohu City, Hefei City",
                "province": "Anhui",
                "country": "China",
                "total": 2
            }
        },
        {
            "type": "Feature",
            "geometry": {
                "type": "Point",
                "coordinates": [
                    117.3319,
                    31.77863
                ]
            },
            "properties": {
                "city": "Baohe District, Hefei City",
                "province": "Anhui",
                "country": "China",
                "total": 3
            }
        },
        {
            "type": "Feature",
            "geometry": {
                "type": "Point",
                "coordinates": [
                    117.224844,
                    31.828313
                ]
            },
            "properties": {
                "city": "High-Tech Zone, Hefei City",
                "province": "Anhui",
                "country": "China",
                "total": 2
            }
        },
        {
            "type": "Feature",
            "geometry": {
                "type": "Point",
                "coordinates": [
                    117.5681,
                    32.00123
                ]
            },
            "properties": {
                "city": "Feidong County, Hefei City",
                "province": "Anhui",
                "country": "China",
                "total": 8
            }
        },
        {
            "type": "Feature",
            "geometry": {
                "type": "Point",
                "coordinates": [
                    116.3151,
                    31.75941
                ]
            },
            "properties": {
                "city": "Lu'an City",
                "province": "Anhui",
                "country": "China",
                "total": 53
            }
        },
        {
            "type": "Feature",
            "geometry": {
                "type": "Point",
                "coordinates": [
                    115.7036,
                    32.9188
                ]
            },
            "properties": {
                "city": "Fuyang City",
                "province": "Anhui",
                "country": "China",
                "total": 114
            }
        },
        {
            "type": "Feature",
            "geometry": {
                "type": "Point",
                "coordinates": [
                    116.7424,
                    33.72722
                ]
            },
            "properties": {
                "city": "Huaibei City",
                "province": "Anhui",
                "country": "China",
                "total": 23
            }
        },
        {
            "type": "Feature",
            "geometry": {
                "type": "Point",
                "coordinates": [
                    116.734,
                    32.75738
                ]
            },
            "properties": {
                "city": "Huainan City",
                "province": "Anhui",
                "country": "China",
                "total": 25
            }
        },
        {
            "type": "Feature",
            "geometry": {
                "type": "Point",
                "coordinates": [
                    117.3428,
                    31.79444
                ]
            },
            "properties": {
                "city": "Hefei City",
                "province": "Anhui",
                "country": "China",
                "total": 116
            }
        },
        {
            "type": "Feature",
            "geometry": {
                "type": "Point",
                "coordinates": [
                    116.5956,
                    30.61122
                ]
            },
            "properties": {
                "city": "Anqing City",
                "province": "Anhui",
                "country": "China",
                "total": 55
            }
        },
        {
            "type": "Feature",
            "geometry": {
                "type": "Point",
                "coordinates": [
                    117.3658,
                    30.28525
                ]
            },
            "properties": {
                "city": "Chizhou City",
                "province": "Anhui",
                "country": "China",
                "total": 8
            }
        },
        {
            "type": "Feature",
            "geometry": {
                "type": "Point",
                "coordinates": [
                    117.326,
                    33.10901
                ]
            },
            "properties": {
                "city": "Bengbu City",
                "province": "Anhui",
                "country": "China",
                "total": 124
            }
        },
        {
            "type": "Feature",
            "geometry": {
                "type": "Point",
                "coordinates": [
                    116.2063,
                    40.20789
                ]
            },
            "properties": {
                "city": "Changping District",
                "province": "Beijing",
                "country": "China",
                "total": 8
            }
        },
        {
            "type": "Feature",
            "geometry": {
                "type": "Point",
                "coordinates": [
                    116.4172,
                    39.64238
                ]
            },
            "properties": {
                "city": "Daxing District",
                "province": "Beijing",
                "country": "China",
                "total": 12
            }
        },
        {
            "type": "Feature",
            "geometry": {
                "type": "Point",
                "coordinates": [
                    116.2499,
                    39.8306
                ]
            },
            "properties": {
                "city": "Fengtai District",
                "province": "Beijing",
                "country": "China",
                "total": 10
            }
        },
        {
            "type": "Feature",
            "geometry": {
                "type": "Point",
                "coordinates": [
                    116.2285,
                    40.02186
                ]
            },
            "properties": {
                "city": "Haidian District",
                "province": "Beijing",
                "country": "China",
                "total": 24
            }
        },
        {
            "type": "Feature",
            "geometry": {
                "type": "Point",
                "coordinates": [
                    116.1737,
                    39.92715
                ]
            },
            "properties": {
                "city": "Shijingshan District",
                "province": "Beijing",
                "country": "China",
                "total": 2
            }
        },
        {
            "type": "Feature",
            "geometry": {
                "type": "Point",
                "coordinates": [
                    116.7363,
                    39.80292
                ]
            },
            "properties": {
                "city": "Tongzhou District",
                "province": "Beijing",
                "country": "China",
                "total": 9
            }
        },
        {
            "type": "Feature",
            "geometry": {
                "type": "Point",
                "coordinates": [
                    116.3591,
                    39.91093
                ]
            },
            "properties": {
                "city": "Xicheng District",
                "province": "Beijing",
                "country": "China",
                "total": 13
            }
        },
        {
            "type": "Feature",
            "geometry": {
                "type": "Point",
                "coordinates": [
                    116.4151,
                    40.18535
                ]
            },
            "properties": {
                "city": "",
                "province": "Beijing",
                "country": "China",
                "total": 153
            }
        },
        {
            "type": "Feature",
            "geometry": {
                "type": "Point",
                "coordinates": [
                    116.5128,
                    39.94612
                ]
            },
            "properties": {
                "city": "Chaoyang District",
                "province": "Beijing",
                "country": "China",
                "total": 18
            }
        },
        {
            "type": "Feature",
            "geometry": {
                "type": "Point",
                "coordinates": [
                    107.1356,
                    29.95723
                ]
            },
            "properties": {
                "city": "Changshou District",
                "province": "Chongqing",
                "country": "China",
                "total": 15
            }
        },
        {
            "type": "Feature",
            "geometry": {
                "type": "Point",
                "coordinates": [
                    108.4023,
                    30.70612
                ]
            },
            "properties": {
                "city": "Wanzhou District",
                "province": "Chongqing",
                "country": "China",
                "total": 65
            }
        },
        {
            "type": "Feature",
            "geometry": {
                "type": "Point",
                "coordinates": [
                    109.8962,
                    31.11774
                ]
            },
            "properties": {
                "city": "Wushan County",
                "province": "Chongqing",
                "country": "China",
                "total": 7
            }
        },
        {
            "type": "Feature",
            "geometry": {
                "type": "Point",
                "coordinates": [
                    107.3324,
                    29.66086
                ]
            },
            "properties": {
                "city": "Fuling District",
                "province": "Chongqing",
                "country": "China",
                "total": 2
            }
        },
        {
            "type": "Feature",
            "geometry": {
                "type": "Point",
                "coordinates": [
                    105.8705,
                    29.29301
                ]
            },
            "properties": {
                "city": "Yongchuan District",
                "province": "Chongqing",
                "country": "China",
                "total": 3
            }
        },
        {
            "type": "Feature",
            "geometry": {
                "type": "Point",
                "coordinates": [
                    106.4452,
                    29.41508
                ]
            },
            "properties": {
                "city": "Dadukou District",
                "province": "Chongqing",
                "country": "China",
                "total": 5
            }
        },
        {
            "type": "Feature",
            "geometry": {
                "type": "Point",
                "coordinates": [
                    106.3625,
                    29.43189
                ]
            },
            "properties": {
                "city": "Jiulongpo District",
                "province": "Chongqing",
                "country": "China",
                "total": 13
            }
        },
        {
            "type": "Feature",
            "geometry": {
                "type": "Point",
                "coordinates": [
                    106.7437,
                    29.81392
                ]
            },
            "properties": {
                "city": "Yubei District",
                "province": "Chongqing",
                "country": "China",
                "total": 12
            }
        },
        {
            "type": "Feature",
            "geometry": {
                "type": "Point",
                "coordinates": [
                    108.3787,
                    31.27337
                ]
            },
            "properties": {
                "city": "Kaizhou District",
                "province": "Chongqing",
                "country": "China",
                "total": 19
            }
        },
        {
            "type": "Feature",
            "geometry": {
                "type": "Point",
                "coordinates": [
                    107.9107,
                    30.33852
                ]
            },
            "properties": {
                "city": "Zhongxian County",
                "province": "Chongqing",
                "country": "China",
                "total": 16
            }
        },
        {
            "type": "Feature",
            "geometry": {
                "type": "Point",
                "coordinates": [
                    108.8523,
                    31.03847
                ]
            },
            "properties": {
                "city": "Yunyang County",
                "province": "Chongqing",
                "country": "China",
                "total": 21
            }
        },
        {
            "type": "Feature",
            "geometry": {
                "type": "Point",
                "coordinates": [
                    109.3445,
                    30.95521
                ]
            },
            "properties": {
                "city": "Fengjie County",
                "province": "Chongqing",
                "country": "China",
                "total": 16
            }
        },
        {
            "type": "Feature",
            "geometry": {
                "type": "Point",
                "coordinates": [
                    109.3486,
                    31.5058
                ]
            },
            "properties": {
                "city": "Wuxi County",
                "province": "Chongqing",
                "country": "China",
                "total": 13
            }
        },
        {
            "type": "Feature",
            "geometry": {
                "type": "Point",
                "coordinates": [
                    109.0143,
                    28.49524
                ]
            },
            "properties": {
                "city": "Xiushan County",
                "province": "Chongqing",
                "country": "China",
                "total": 1
            }
        },
        {
            "type": "Feature",
            "geometry": {
                "type": "Point",
                "coordinates": [
                    106.567,
                    29.6426
                ]
            },
            "properties": {
                "city": "Liangjiang New District",
                "province": "Chongqing",
                "country": "China",
                "total": 14
            }
        },
        {
            "type": "Feature",
            "geometry": {
                "type": "Point",
                "coordinates": [
                    107.4326,
                    30.25976
                ]
            },
            "properties": {
                "city": "Dianjiang County",
                "province": "Chongqing",
                "country": "China",
                "total": 14
            }
        },
        {
            "type": "Feature",
            "geometry": {
                "type": "Point",
                "coordinates": [
                    119.1789,
                    26.05196
                ]
            },
            "properties": {
                "city": "Fuzhou City",
                "province": "Fujian",
                "country": "China",
                "total": 27
            }
        },
        {
            "type": "Feature",
            "geometry": {
                "type": "Point",
                "coordinates": [
                    119.4745,
                    26.97674
                ]
            },
            "properties": {
                "city": "Ningde City",
                "province": "Fujian",
                "country": "China",
                "total": 7
            }
        },
        {
            "type": "Feature",
            "geometry": {
                "type": "Point",
                "coordinates": [
                    118.2574,
                    25.21145
                ]
            },
            "properties": {
                "city": "Quanzhou City",
                "province": "Fujian",
                "country": "China",
                "total": 13
            }
        },
        {
            "type": "Feature",
            "geometry": {
                "type": "Point",
                "coordinates": [
                    118.1138,
                    24.67595
                ]
            },
            "properties": {
                "city": "Xiamen City",
                "province": "Fujian",
                "country": "China",
                "total": 17
            }
        },
        {
            "type": "Feature",
            "geometry": {
                "type": "Point",
                "coordinates": [
                    103.6554,
                    36.35126
                ]
            },
            "properties": {
                "city": "Lanzhou City",
                "province": "Gansu",
                "country": "China",
                "total": 15
            }
        },
        {
            "type": "Feature",
            "geometry": {
                "type": "Point",
                "coordinates": [
                    104.6208,
                    36.61864
                ]
            },
            "properties": {
                "city": "Baiyin City",
                "province": "Gansu",
                "country": "China",
                "total": 2
            }
        },
        {
            "type": "Feature",
            "geometry": {
                "type": "Point",
                "coordinates": [
                    112.9444,
                    23.0131
                ]
            },
            "properties": {
                "city": "Foshan City",
                "province": "Guangdong",
                "country": "China",
                "total": 70
            }
        },
        {
            "type": "Feature",
            "geometry": {
                "type": "Point",
                "coordinates": [
                    113.5364,
                    23.34983
                ]
            },
            "properties": {
                "city": "Guangzhou City",
                "province": "Guangdong",
                "country": "China",
                "total": 277
            }
        },
        {
            "type": "Feature",
            "geometry": {
                "type": "Point",
                "coordinates": [
                    113.7723,
                    24.82198
                ]
            },
            "properties": {
                "city": "Shaoguan City",
                "province": "Guangdong",
                "country": "China",
                "total": 7
            }
        },
        {
            "type": "Feature",
            "geometry": {
                "type": "Point",
                "coordinates": [
                    114.1291,
                    22.65389
                ]
            },
            "properties": {
                "city": "Shenzhen City",
                "province": "Guangdong",
                "country": "China",
                "total": 357
            }
        },
        {
            "type": "Feature",
            "geometry": {
                "type": "Point",
                "coordinates": [
                    110.1654,
                    21.10003
                ]
            },
            "properties": {
                "city": "Zhanjiang City",
                "province": "Guangdong",
                "country": "China",
                "total": 17
            }
        },
        {
            "type": "Feature",
            "geometry": {
                "type": "Point",
                "coordinates": [
                    112.2026,
                    23.54164
                ]
            },
            "properties": {
                "city": "Zhaoqing City",
                "province": "Guangdong",
                "country": "China",
                "total": 18
            }
        },
        {
            "type": "Feature",
            "geometry": {
                "type": "Point",
                "coordinates": [
                    113.3859,
                    22.52105
                ]
            },
            "properties": {
                "city": "Zhongshan City",
                "province": "Guangdong",
                "country": "China",
                "total": 46
            }
        },
        {
            "type": "Feature",
            "geometry": {
                "type": "Point",
                "coordinates": [
                    113.361,
                    22.16925
                ]
            },
            "properties": {
                "city": "Zhuhai City",
                "province": "Guangdong",
                "country": "China",
                "total": 86
            }
        },
        {
            "type": "Feature",
            "geometry": {
                "type": "Point",
                "coordinates": [
                    111.7726,
                    22.03769
                ]
            },
            "properties": {
                "city": "Yangjiang City",
                "province": "Guangdong",
                "country": "China",
                "total": 13
            }
        },
        {
            "type": "Feature",
            "geometry": {
                "type": "Point",
                "coordinates": [
                    112.8749,
                    24.31602
                ]
            },
            "properties": {
                "city": "Qingyuan City",
                "province": "Guangdong",
                "country": "China",
                "total": 11
            }
        },
        {
            "type": "Feature",
            "geometry": {
                "type": "Point",
                "coordinates": [
                    114.4983,
                    23.24435
                ]
            },
            "properties": {
                "city": "Huizhou City",
                "province": "Guangdong",
                "country": "China",
                "total": 49
            }
        },
        {
            "type": "Feature",
            "geometry": {
                "type": "Point",
                "coordinates": [
                    109.328,
                    21.67666
                ]
            },
            "properties": {
                "city": "Beihai City",
                "province": "Guangxi",
                "country": "China",
                "total": 44
            }
        },
        {
            "type": "Feature",
            "geometry": {
                "type": "Point",
                "coordinates": [
                    109.371,
                    24.95009
                ]
            },
            "properties": {
                "city": "Liuzhou City",
                "province": "Guangxi",
                "country": "China",
                "total": 24
            }
        },
        {
            "type": "Feature",
            "geometry": {
                "type": "Point",
                "coordinates": [
                    110.9909,
                    23.48172
                ]
            },
            "properties": {
                "city": "Wuzhou City",
                "province": "Guangxi",
                "country": "China",
                "total": 5
            }
        },
        {
            "type": "Feature",
            "geometry": {
                "type": "Point",
                "coordinates": [
                    110.5145,
                    25.35865
                ]
            },
            "properties": {
                "city": "Guilin City",
                "province": "Guangxi",
                "country": "China",
                "total": 32
            }
        },
        {
            "type": "Feature",
            "geometry": {
                "type": "Point",
                "coordinates": [
                    106.2863,
                    23.98862
                ]
            },
            "properties": {
                "city": "Baise City",
                "province": "Guangxi",
                "country": "China",
                "total": 3
            }
        },
        {
            "type": "Feature",
            "geometry": {
                "type": "Point",
                "coordinates": [
                    107.8409,
                    24.64574
                ]
            },
            "properties": {
                "city": "Hechi City",
                "province": "Guangxi",
                "country": "China",
                "total": 25
            }
        },
        {
            "type": "Feature",
            "geometry": {
                "type": "Point",
                "coordinates": [
                    107.9967,
                    21.88401
                ]
            },
            "properties": {
                "city": "Fangchenggang City",
                "province": "Guangxi",
                "country": "China",
                "total": 19
            }
        },
        {
            "type": "Feature",
            "geometry": {
                "type": "Point",
                "coordinates": [
                    110.182,
                    22.44296
                ]
            },
            "properties": {
                "city": "Yulin City",
                "province": "Guangxi",
                "country": "China",
                "total": 11
            }
        },
        {
            "type": "Feature",
            "geometry": {
                "type": "Point",
                "coordinates": [
                    107.1928,
                    26.43055
                ]
            },
            "properties": {
                "city": "Guiding County, Qiannan Prefecture",
                "province": "Guizhou",
                "country": "China",
                "total": 3
            }
        },
        {
            "type": "Feature",
            "geometry": {
                "type": "Point",
                "coordinates": [
                    106.7064,
                    26.84311
                ]
            },
            "properties": {
                "city": "Guiyang City",
                "province": "Guizhou",
                "country": "China",
                "total": 15
            }
        },
        {
            "type": "Feature",
            "geometry": {
                "type": "Point",
                "coordinates": [
                    108.5408,
                    27.97374
                ]
            },
            "properties": {
                "city": "Tongren City",
                "province": "Guizhou",
                "country": "China",
                "total": 4
            }
        },
        {
            "type": "Feature",
            "geometry": {
                "type": "Point",
                "coordinates": [
                    110.4222,
                    19.83166
                ]
            },
            "properties": {
                "city": "Haikou City",
                "province": "Hainan",
                "country": "China",
                "total": 33
            }
        },
        {
            "type": "Feature",
            "geometry": {
                "type": "Point",
                "coordinates": [
                    110.2876,
                    18.83795
                ]
            },
            "properties": {
                "city": "Wanning City",
                "province": "Hainan",
                "country": "China",
                "total": 14
            }
        },
        {
            "type": "Feature",
            "geometry": {
                "type": "Point",
                "coordinates": [
                    114.4384,
                    38.13361
                ]
            },
            "properties": {
                "city": "Shijiazhuang City",
                "province": "Hebei",
                "country": "China",
                "total": 24
            }
        },
        {
            "type": "Feature",
            "geometry": {
                "type": "Point",
                "coordinates": [
                    116.7593,
                    38.26855
                ]
            },
            "properties": {
                "city": "Cangzhou City",
                "province": "Hebei",
                "country": "China",
                "total": 26
            }
        },
        {
            "type": "Feature",
            "geometry": {
                "type": "Point",
                "coordinates": [
                    127.9588,
                    45.64657
                ]
            },
            "properties": {
                "city": "Harbin City",
                "province": "Heilongjiang",
                "country": "China",
                "total": 16
            }
        },
        {
            "type": "Feature",
            "geometry": {
                "type": "Point",
                "coordinates": [
                    129.8858,
                    44.6065
                ]
            },
            "properties": {
                "city": "Mudanjiang City",
                "province": "Heilongjiang",
                "country": "China",
                "total": 1
            }
        },
        {
            "type": "Feature",
            "geometry": {
                "type": "Point",
                "coordinates": [
                    124.699,
                    46.35607
                ]
            },
            "properties": {
                "city": "Daqing City",
                "province": "Heilongjiang",
                "country": "China",
                "total": 8
            }
        },
        {
            "type": "Feature",
            "geometry": {
                "type": "Point",
                "coordinates": [
                    126.6487,
                    46.90084
                ]
            },
            "properties": {
                "city": "Suihua City",
                "province": "Heilongjiang",
                "country": "China",
                "total": 8
            }
        },
        {
            "type": "Feature",
            "geometry": {
                "type": "Point",
                "coordinates": [
                    113.468,
                    34.62931
                ]
            },
            "properties": {
                "city": "Zhengzhou City",
                "province": "Henan",
                "country": "China",
                "total": 123
            }
        },
        {
            "type": "Feature",
            "geometry": {
                "type": "Point",
                "coordinates": [
                    111.1065,
                    34.36358
                ]
            },
            "properties": {
                "city": "Sanmenxia City",
                "province": "Henan",
                "country": "China",
                "total": 5
            }
        },
        {
            "type": "Feature",
            "geometry": {
                "type": "Point",
                "coordinates": [
                    112.0323,
                    34.2936
                ]
            },
            "properties": {
                "city": "Luoyang City",
                "province": "Henan",
                "country": "China",
                "total": 17
            }
        },
        {
            "type": "Feature",
            "geometry": {
                "type": "Point",
                "coordinates": [
                    114.084,
                    35.26547
                ]
            },
            "properties": {
                "city": "Xinxiang City",
                "province": "Henan",
                "country": "China",
                "total": 92
            }
        },
        {
            "type": "Feature",
            "geometry": {
                "type": "Point",
                "coordinates": [
                    114.8773,
                    33.72386
                ]
            },
            "properties": {
                "city": "Zhoukou City",
                "province": "Henan",
                "country": "China",
                "total": 64
            }
        },
        {
            "type": "Feature",
            "geometry": {
                "type": "Point",
                "coordinates": [
                    114.1324,
                    22.38074
                ]
            },
            "properties": {
                "city": "Hong Kong",
                "province": "Hong Kong",
                "country": "China",
                "total": 28
            }
        },
        {
            "type": "Feature",
            "geometry": {
                "type": "Point",
                "coordinates": [
                    113.1532,
                    28.22759
                ]
            },
            "properties": {
                "city": "Changsha City",
                "province": "Hunan",
                "country": "China",
                "total": 208
            }
        },
        {
            "type": "Feature",
            "geometry": {
                "type": "Point",
                "coordinates": [
                    109.9751,
                    27.64106
                ]
            },
            "properties": {
                "city": "Hecheng District, Huaihua City",
                "province": "Hunan",
                "country": "China",
                "total": 3
            }
        },
        {
            "type": "Feature",
            "geometry": {
                "type": "Point",
                "coordinates": [
                    111.7296,
                    25.77932
                ]
            },
            "properties": {
                "city": "Yongzhou City",
                "province": "Hunan",
                "country": "China",
                "total": 38
            }
        },
        {
            "type": "Feature",
            "geometry": {
                "type": "Point",
                "coordinates": [
                    113.1376,
                    25.81815
                ]
            },
            "properties": {
                "city": "Chenzhou City",
                "province": "Hunan",
                "country": "China",
                "total": 28
            }
        },
        {
            "type": "Feature",
            "geometry": {
                "type": "Point",
                "coordinates": [
                    113.5158,
                    27.12398
                ]
            },
            "properties": {
                "city": "Zhuzhou City",
                "province": "Hunan",
                "country": "China",
                "total": 60
            }
        },
        {
            "type": "Feature",
            "geometry": {
                "type": "Point",
                "coordinates": [
                    112.6022,
                    27.73204
                ]
            },
            "properties": {
                "city": "Xiangtan City",
                "province": "Hunan",
                "country": "China",
                "total": 30
            }
        },
        {
            "type": "Feature",
            "geometry": {
                "type": "Point",
                "coordinates": [
                    113.254,
                    29.0682
                ]
            },
            "properties": {
                "city": "Yueyang City",
                "province": "Hunan",
                "country": "China",
                "total": 118
            }
        },
        {
            "type": "Feature",
            "geometry": {
                "type": "Point",
                "coordinates": [
                    111.6133,
                    27.73964
                ]
            },
            "properties": {
                "city": "Loudi City",
                "province": "Hunan",
                "country": "China",
                "total": 64
            }
        },
        {
            "type": "Feature",
            "geometry": {
                "type": "Point",
                "coordinates": [
                    117.4943,
                    49.53241
                ]
            },
            "properties": {
                "city": "Manzhouli City, Hulunbuir City",
                "province": "Inner Mongolia",
                "country": "China",
                "total": 3
            }
        },
        {
            "type": "Feature",
            "geometry": {
                "type": "Point",
                "coordinates": [
                    120.6418,
                    31.37802
                ]
            },
            "properties": {
                "city": "Suzhou City",
                "province": "Jiangsu",
                "country": "China",
                "total": 69
            }
        },
        {
            "type": "Feature",
            "geometry": {
                "type": "Point",
                "coordinates": [
                    118.8424,
                    31.92997
                ]
            },
            "properties": {
                "city": "Nanjing City",
                "province": "Jiangsu",
                "country": "China",
                "total": 68
            }
        },
        {
            "type": "Feature",
            "geometry": {
                "type": "Point",
                "coordinates": [
                    119.1325,
                    34.534
                ]
            },
            "properties": {
                "city": "Lianyungang City",
                "province": "Jiangsu",
                "country": "China",
                "total": 35
            }
        },
        {
            "type": "Feature",
            "geometry": {
                "type": "Point",
                "coordinates": [
                    119.4729,
                    32.73976
                ]
            },
            "properties": {
                "city": "Yangzhou City",
                "province": "Jiangsu",
                "country": "China",
                "total": 21
            }
        },
        {
            "type": "Feature",
            "geometry": {
                "type": "Point",
                "coordinates": [
                    120.0767,
                    31.52812
                ]
            },
            "properties": {
                "city": "Wuxi City",
                "province": "Jiangsu",
                "country": "China",
                "total": 42
            }
        },
        {
            "type": "Feature",
            "geometry": {
                "type": "Point",
                "coordinates": [
                    121.0053,
                    32.1975
                ]
            },
            "properties": {
                "city": "Nantong City",
                "province": "Jiangsu",
                "country": "China",
                "total": 33
            }
        },
        {
            "type": "Feature",
            "geometry": {
                "type": "Point",
                "coordinates": [
                    116.6081,
                    28.21876
                ]
            },
            "properties": {
                "city": "Dongxiang County, Fuzhou City",
                "province": "Jiangxi",
                "country": "China",
                "total": 1
            }
        },
        {
            "type": "Feature",
            "geometry": {
                "type": "Point",
                "coordinates": [
                    113.7218,
                    27.50699
                ]
            },
            "properties": {
                "city": "Xiangdong District, Pingxiang City",
                "province": "Jiangxi",
                "country": "China",
                "total": 1
            }
        },
        {
            "type": "Feature",
            "geometry": {
                "type": "Point",
                "coordinates": [
                    116.0257,
                    28.66149
                ]
            },
            "properties": {
                "city": "Nanchang City",
                "province": "Jiangxi",
                "country": "China",
                "total": 198
            }
        },
        {
            "type": "Feature",
            "geometry": {
                "type": "Point",
                "coordinates": [
                    115.4418,
                    29.3255
                ]
            },
            "properties": {
                "city": "Jiujiang City",
                "province": "Jiangxi",
                "country": "China",
                "total": 110
            }
        },
        {
            "type": "Feature",
            "geometry": {
                "type": "Point",
                "coordinates": [
                    114.8515,
                    27.84546
                ]
            },
            "properties": {
                "city": "Xinyu City",
                "province": "Jiangxi",
                "country": "China",
                "total": 109
            }
        },
        {
            "type": "Feature",
            "geometry": {
                "type": "Point",
                "coordinates": [
                    114.8248,
                    26.97535
                ]
            },
            "properties": {
                "city": "Ji'an City",
                "province": "Jiangxi",
                "country": "China",
                "total": 19
            }
        },
        {
            "type": "Feature",
            "geometry": {
                "type": "Point",
                "coordinates": [
                    116.4344,
                    27.51128
                ]
            },
            "properties": {
                "city": "Fuzhou City",
                "province": "Jiangxi",
                "country": "China",
                "total": 65
            }
        },
        {
            "type": "Feature",
            "geometry": {
                "type": "Point",
                "coordinates": [
                    115.2745,
                    25.71368
                ]
            },
            "properties": {
                "city": "Ganzhou City",
                "province": "Jiangxi",
                "country": "China",
                "total": 70
            }
        },
        {
            "type": "Feature",
            "geometry": {
                "type": "Point",
                "coordinates": [
                    117.4692,
                    28.77693
                ]
            },
            "properties": {
                "city": "Shangrao City",
                "province": "Jiangxi",
                "country": "China",
                "total": 102
            }
        },
        {
            "type": "Feature",
            "geometry": {
                "type": "Point",
                "coordinates": [
                    114.9732,
                    28.30755
                ]
            },
            "properties": {
                "city": "Yichun City",
                "province": "Jiangxi",
                "country": "China",
                "total": 86
            }
        },
        {
            "type": "Feature",
            "geometry": {
                "type": "Point",
                "coordinates": [
                    117.2708,
                    29.30999
                ]
            },
            "properties": {
                "city": "Jingdezhen City",
                "province": "Jiangxi",
                "country": "China",
                "total": 6
            }
        },
        {
            "type": "Feature",
            "geometry": {
                "type": "Point",
                "coordinates": [
                    125.769,
                    44.38803
                ]
            },
            "properties": {
                "city": "Changchun City",
                "province": "Jilin",
                "country": "China",
                "total": 26
            }
        },
        {
            "type": "Feature",
            "geometry": {
                "type": "Point",
                "coordinates": [
                    124.4795,
                    44.80382
                ]
            },
            "properties": {
                "city": "Songyuan City",
                "province": "Jilin",
                "country": "China",
                "total": 2
            }
        },
        {
            "type": "Feature",
            "geometry": {
                "type": "Point",
                "coordinates": [
                    126.8481,
                    43.58859
                ]
            },
            "properties": {
                "city": "Jilin City",
                "province": "Jilin",
                "country": "China",
                "total": 4
            }
        },
        {
            "type": "Feature",
            "geometry": {
                "type": "Point",
                "coordinates": [
                    122.2224,
                    39.59944
                ]
            },
            "properties": {
                "city": "Dalian City",
                "province": "Liaoning",
                "country": "China",
                "total": 39
            }
        },
        {
            "type": "Feature",
            "geometry": {
                "type": "Point",
                "coordinates": [
                    123.1391,
                    42.10012
                ]
            },
            "properties": {
                "city": "Shenyang City",
                "province": "Liaoning",
                "country": "China",
                "total": 52
            }
        },
        {
            "type": "Feature",
            "geometry": {
                "type": "Point",
                "coordinates": [
                    120.0166,
                    41.51421
                ]
            },
            "properties": {
                "city": "Chaoyang City",
                "province": "Liaoning",
                "country": "China",
                "total": 18
            }
        },
        {
            "type": "Feature",
            "geometry": {
                "type": "Point",
                "coordinates": [
                    113.55,
                    22.166667
                ]
            },
            "properties": {
                "city": "Border Checkpoint",
                "province": "Macau",
                "country": "China",
                "total": 1
            }
        },
        {
            "type": "Feature",
            "geometry": {
                "type": "Point",
                "coordinates": [
                    113.55,
                    22.166667
                ]
            },
            "properties": {
                "city": "Landmark Hotel",
                "province": "Macau",
                "country": "China",
                "total": 1
            }
        },
        {
            "type": "Feature",
            "geometry": {
                "type": "Point",
                "coordinates": [
                    106.3496,
                    38.2349
                ]
            },
            "properties": {
                "city": "Yinchuan City",
                "province": "Ningxia",
                "country": "China",
                "total": 11
            }
        },
        {
            "type": "Feature",
            "geometry": {
                "type": "Point",
                "coordinates": [
                    105.4777,
                    37.0548
                ]
            },
            "properties": {
                "city": "Zhongwei City",
                "province": "Ningxia",
                "country": "China",
                "total": 1
            }
        },
        {
            "type": "Feature",
            "geometry": {
                "type": "Point",
                "coordinates": [
                    108.7872,
                    34.10727
                ]
            },
            "properties": {
                "city": "Xi'an City",
                "province": "Shaanxi",
                "country": "China",
                "total": 52
            }
        },
        {
            "type": "Feature",
            "geometry": {
                "type": "Point",
                "coordinates": [
                    108.3897,
                    34.78867
                ]
            },
            "properties": {
                "city": "Xianyang City",
                "province": "Shaanxi",
                "country": "China",
                "total": 12
            }
        },
        {
            "type": "Feature",
            "geometry": {
                "type": "Point",
                "coordinates": [
                    109.3161,
                    36.44222
                ]
            },
            "properties": {
                "city": "Yan'an City",
                "province": "Shaanxi",
                "country": "China",
                "total": 3
            }
        },
        {
            "type": "Feature",
            "geometry": {
                "type": "Point",
                "coordinates": [
                    108.9258,
                    32.76183
                ]
            },
            "properties": {
                "city": "Ankang City",
                "province": "Shaanxi",
                "country": "China",
                "total": 13
            }
        },
        {
            "type": "Feature",
            "geometry": {
                "type": "Point",
                "coordinates": [
                    121.9821,
                    37.12174
                ]
            },
            "properties": {
                "city": "Weihai City",
                "province": "Shandong",
                "country": "China",
                "total": 12
            }
        },
        {
            "type": "Feature",
            "geometry": {
                "type": "Point",
                "coordinates": [
                    118.2809,
                    35.31235
                ]
            },
            "properties": {
                "city": "Linyi City",
                "province": "Shandong",
                "country": "China",
                "total": 18
            }
        },
        {
            "type": "Feature",
            "geometry": {
                "type": "Point",
                "coordinates": [
                    120.1436,
                    36.45484
                ]
            },
            "properties": {
                "city": "Qingdao City",
                "province": "Shandong",
                "country": "China",
                "total": 29
            }
        },
        {
            "type": "Feature",
            "geometry": {
                "type": "Point",
                "coordinates": [
                    119.0713,
                    36.55315
                ]
            },
            "properties": {
                "city": "Weifang City",
                "province": "Shandong",
                "country": "China",
                "total": 7
            }
        },
        {
            "type": "Feature",
            "geometry": {
                "type": "Point",
                "coordinates": [
                    119.1358,
                    35.58324
                ]
            },
            "properties": {
                "city": "Rizhao City",
                "province": "Shandong",
                "country": "China",
                "total": 10
            }
        },
        {
            "type": "Feature",
            "geometry": {
                "type": "Point",
                "coordinates": [
                    117.0851,
                    36.73414
                ]
            },
            "properties": {
                "city": "Jinan City",
                "province": "Shandong",
                "country": "China",
                "total": 17
            }
        },
        {
            "type": "Feature",
            "geometry": {
                "type": "Point",
                "coordinates": [
                    120.8051,
                    37.24217
                ]
            },
            "properties": {
                "city": "Yantai City",
                "province": "Shandong",
                "country": "China",
                "total": 19
            }
        },
        {
            "type": "Feature",
            "geometry": {
                "type": "Point",
                "coordinates": [
                    116.7332,
                    35.37464
                ]
            },
            "properties": {
                "city": "Jining City",
                "province": "Shandong",
                "country": "China",
                "total": 19
            }
        },
        {
            "type": "Feature",
            "geometry": {
                "type": "Point",
                "coordinates": [
                    121.4555,
                    31.2045
                ]
            },
            "properties": {
                "city": "",
                "province": "Shanghai",
                "country": "China",
                "total": 219
            }
        },
        {
            "type": "Feature",
            "geometry": {
                "type": "Point",
                "coordinates": [
                    112.3157,
                    37.96001
                ]
            },
            "properties": {
                "city": "Taiyuan City",
                "province": "Shanxi",
                "country": "China",
                "total": 3
            }
        },
        {
            "type": "Feature",
            "geometry": {
                "type": "Point",
                "coordinates": [
                    103.8256,
                    30.70291
                ]
            },
            "properties": {
                "city": "Chengdu City",
                "province": "Sichuan",
                "country": "China",
                "total": 89
            }
        },
        {
            "type": "Feature",
            "geometry": {
                "type": "Point",
                "coordinates": [
                    107.6465,
                    31.37014
                ]
            },
            "properties": {
                "city": "Dazhou City",
                "province": "Sichuan",
                "country": "China",
                "total": 18
            }
        },
        {
            "type": "Feature",
            "geometry": {
                "type": "Point",
                "coordinates": [
                    106.6635,
                    30.42717
                ]
            },
            "properties": {
                "city": "Guang'an City",
                "province": "Sichuan",
                "country": "China",
                "total": 14
            }
        },
        {
            "type": "Feature",
            "geometry": {
                "type": "Point",
                "coordinates": [
                    104.7008,
                    31.8534
                ]
            },
            "properties": {
                "city": "Mianyang City",
                "province": "Sichuan",
                "country": "China",
                "total": 10
            }
        },
        {
            "type": "Feature",
            "geometry": {
                "type": "Point",
                "coordinates": [
                    117.3333,
                    39.29713
                ]
            },
            "properties": {
                "city": "Tianjin City",
                "province": "Tianjin",
                "country": "China",
                "total": 36
            }
        },
        {
            "type": "Feature",
            "geometry": {
                "type": "Point",
                "coordinates": [
                    87.78531,
                    43.73043
                ]
            },
            "properties": {
                "city": "Urumqi City",
                "province": "Xinjiang",
                "country": "China",
                "total": 21
            }
        },
        {
            "type": "Feature",
            "geometry": {
                "type": "Point",
                "coordinates": [
                    102.8739,
                    25.39236
                ]
            },
            "properties": {
                "city": "Kunming City",
                "province": "Yunnan",
                "country": "China",
                "total": 38
            }
        },
        {
            "type": "Feature",
            "geometry": {
                "type": "Point",
                "coordinates": [
                    100.9477,
                    21.93139
                ]
            },
            "properties": {
                "city": "Xishuangbanna Prefecture",
                "province": "Yunnan",
                "country": "China",
                "total": 14
            }
        },
        {
            "type": "Feature",
            "geometry": {
                "type": "Point",
                "coordinates": [
                    100.5235,
                    26.94233
                ]
            },
            "properties": {
                "city": "Lijiang City",
                "province": "Yunnan",
                "country": "China",
                "total": 6
            }
        },
        {
            "type": "Feature",
            "geometry": {
                "type": "Point",
                "coordinates": [
                    119.4715,
                    29.90166
                ]
            },
            "properties": {
                "city": "Hangzhou City",
                "province": "Zhejiang",
                "country": "China",
                "total": 171
            }
        },
        {
            "type": "Feature",
            "geometry": {
                "type": "Point",
                "coordinates": [
                    119.9524,
                    29.11746
                ]
            },
            "properties": {
                "city": "Jinhua City",
                "province": "Zhejiang",
                "country": "China",
                "total": 50
            }
        },
        {
            "type": "Feature",
            "geometry": {
                "type": "Point",
                "coordinates": [
                    118.674,
                    28.9356
                ]
            },
            "properties": {
                "city": "Quzhou City",
                "province": "Zhejiang",
                "country": "China",
                "total": 13
            }
        },
        {
            "type": "Feature",
            "geometry": {
                "type": "Point",
                "coordinates": [
                    121.4792,
                    29.71147
                ]
            },
            "properties": {
                "city": "Ningbo City",
                "province": "Zhejiang",
                "country": "China",
                "total": 168
            }
        },
        {
            "type": "Feature",
            "geometry": {
                "type": "Point",
                "coordinates": [
                    120.636,
                    29.7353
                ]
            },
            "properties": {
                "city": "Shaoxing City",
                "province": "Zhejiang",
                "country": "China",
                "total": 38
            }
        },
        {
            "type": "Feature",
            "geometry": {
                "type": "Point",
                "coordinates": [
                    121.1116,
                    28.775
                ]
            },
            "properties": {
                "city": "Taizhou City",
                "province": "Zhejiang",
                "country": "China",
                "total": 132
            }
        },
        {
            "type": "Feature",
            "geometry": {
                "type": "Point",
                "coordinates": [
                    120.4404,
                    27.90538
                ]
            },
            "properties": {
                "city": "Wenzhou City",
                "province": "Zhejiang",
                "country": "China",
                "total": 497
            }
        },
        {
            "type": "Feature",
            "geometry": {
                "type": "Point",
                "coordinates": [
                    122.1883,
                    30.09654
                ]
            },
            "properties": {
                "city": "Zhoushan City",
                "province": "Zhejiang",
                "country": "China",
                "total": 7
            }
        },
        {
            "type": "Feature",
            "geometry": {
                "type": "Point",
                "coordinates": [
                    120.7547,
                    30.63995
                ]
            },
            "properties": {
                "city": "Jiaxing City",
                "province": "Zhejiang",
                "country": "China",
                "total": 43
            }
        },
        {
            "type": "Feature",
            "geometry": {
                "type": "Point",
                "coordinates": [
                    108.2932,
                    30.09428
                ]
            },
            "properties": {
                "city": "Shizhu County",
                "province": "Chongqing",
                "country": "China",
                "total": 9
            }
        },
        {
            "type": "Feature",
            "geometry": {
                "type": "Point",
                "coordinates": [
                    110.0777,
                    27.55503
                ]
            },
            "properties": {
                "city": "Huaihua City",
                "province": "Hunan",
                "country": "China",
                "total": 34
            }
        },
        {
            "type": "Feature",
            "geometry": {
                "type": "Point",
                "coordinates": [
                    117.32,
                    31.26968
                ]
            },
            "properties": {
                "city": "Lujiang County, Hefei City",
                "province": "Anhui",
                "country": "China",
                "total": 5
            }
        },
        {
            "type": "Feature",
            "geometry": {
                "type": "Point",
                "coordinates": [
                    117.3384,
                    31.89544
                ]
            },
            "properties": {
                "city": "Yaohai District, Hefei City",
                "province": "Anhui",
                "country": "China",
                "total": 5
            }
        },
        {
            "type": "Feature",
            "geometry": {
                "type": "Point",
                "coordinates": [
                    116.1808,
                    33.43671
                ]
            },
            "properties": {
                "city": "Bozhou City",
                "province": "Anhui",
                "country": "China",
                "total": 94
            }
        },
        {
            "type": "Feature",
            "geometry": {
                "type": "Point",
                "coordinates": [
                    116.6771,
                    30.24028
                ]
            },
            "properties": {
                "city": "Wangjiang County, Anqing City",
                "province": "Anhui",
                "country": "China",
                "total": 1
            }
        },
        {
            "type": "Feature",
            "geometry": {
                "type": "Point",
                "coordinates": [
                    116.9416,
                    30.96895
                ]
            },
            "properties": {
                "city": "Tongcheng City, Anqing City",
                "province": "Anhui",
                "country": "China",
                "total": 1
            }
        },
        {
            "type": "Feature",
            "geometry": {
                "type": "Point",
                "coordinates": [
                    116.5411,
                    30.75502
                ]
            },
            "properties": {
                "city": "Qianshan City, Anqing City",
                "province": "Anhui",
                "country": "China",
                "total": 1
            }
        },
        {
            "type": "Feature",
            "geometry": {
                "type": "Point",
                "coordinates": [
                    112.2833,
                    33.04534
                ]
            },
            "properties": {
                "city": "Nanyang City",
                "province": "Henan",
                "country": "China",
                "total": 126
            }
        },
        {
            "type": "Feature",
            "geometry": {
                "type": "Point",
                "coordinates": [
                    119.6369,
                    31.62592
                ]
            },
            "properties": {
                "city": "Changzhou City",
                "province": "Jiangsu",
                "country": "China",
                "total": 41
            }
        },
        {
            "type": "Feature",
            "geometry": {
                "type": "Point",
                "coordinates": [
                    109.4197,
                    18.39084
                ]
            },
            "properties": {
                "city": "Sanya City",
                "province": "Hainan",
                "country": "China",
                "total": 34
            }
        },
        {
            "type": "Feature",
            "geometry": {
                "type": "Point",
                "coordinates": [
                    124.4043,
                    40.54612
                ]
            },
            "properties": {
                "city": "Dandong City",
                "province": "Liaoning",
                "country": "China",
                "total": 19
            }
        },
        {
            "type": "Feature",
            "geometry": {
                "type": "Point",
                "coordinates": [
                    115.1701,
                    39.02267
                ]
            },
            "properties": {
                "city": "Baoding City",
                "province": "Hebei",
                "country": "China",
                "total": 21
            }
        },
        {
            "type": "Feature",
            "geometry": {
                "type": "Point",
                "coordinates": [
                    113.7186,
                    39.9064
                ]
            },
            "properties": {
                "city": "Datong City",
                "province": "Shanxi",
                "country": "China",
                "total": 3
            }
        },
        {
            "type": "Feature",
            "geometry": {
                "type": "Point",
                "coordinates": [
                    111.0727,
                    35.18812
                ]
            },
            "properties": {
                "city": "Yuncheng City",
                "province": "Shanxi",
                "country": "China",
                "total": 4
            }
        },
        {
            "type": "Feature",
            "geometry": {
                "type": "Point",
                "coordinates": [
                    112.9151,
                    36.47742
                ]
            },
            "properties": {
                "city": "Changzhi City",
                "province": "Shanxi",
                "country": "China",
                "total": 1
            }
        },
        {
            "type": "Feature",
            "geometry": {
                "type": "Point",
                "coordinates": [
                    108.9274,
                    34.03647
                ]
            },
            "properties": {
                "city": "Chang'an District, Xi'an City",
                "province": "Shaanxi",
                "country": "China",
                "total": 1
            }
        },
        {
            "type": "Feature",
            "geometry": {
                "type": "Point",
                "coordinates": [
                    108.8962,
                    34.27251
                ]
            },
            "properties": {
                "city": "Lianhu District, Xi'an City",
                "province": "Shaanxi",
                "country": "China",
                "total": 4
            }
        },
        {
            "type": "Feature",
            "geometry": {
                "type": "Point",
                "coordinates": [
                    104.3416,
                    24.98012
                ]
            },
            "properties": {
                "city": "Luoping County, Qujing City",
                "province": "Yunnan",
                "country": "China",
                "total": 1
            }
        },
        {
            "type": "Feature",
            "geometry": {
                "type": "Point",
                "coordinates": [
                    102.2032,
                    24.14295
                ]
            },
            "properties": {
                "city": "Yuxi City",
                "province": "Yunnan",
                "country": "China",
                "total": 11
            }
        },
        {
            "type": "Feature",
            "geometry": {
                "type": "Point",
                "coordinates": [
                    103.4879,
                    23.33841
                ]
            },
            "properties": {
                "city": "Mengzi City, Honghe Prefecture",
                "province": "Yunnan",
                "country": "China",
                "total": 1
            }
        },
        {
            "type": "Feature",
            "geometry": {
                "type": "Point",
                "coordinates": [
                    100.037,
                    25.73038
                ]
            },
            "properties": {
                "city": "Dali Prefecture",
                "province": "Yunnan",
                "country": "China",
                "total": 11
            }
        },
        {
            "type": "Feature",
            "geometry": {
                "type": "Point",
                "coordinates": [
                    105.4632,
                    25.26714
                ]
            },
            "properties": {
                "city": "Qianxinan Prefecture",
                "province": "Guizhou",
                "country": "China",
                "total": 4
            }
        },
        {
            "type": "Feature",
            "geometry": {
                "type": "Point",
                "coordinates": [
                    115.5438,
                    44.24353
                ]
            },
            "properties": {
                "city": "Xilingol League City",
                "province": "Inner Mongolia",
                "country": "China",
                "total": 5
            }
        },
        {
            "type": "Feature",
            "geometry": {
                "type": "Point",
                "coordinates": [
                    101.4437,
                    36.82615
                ]
            },
            "properties": {
                "city": "Xining City",
                "province": "Qinghai",
                "country": "China",
                "total": 15
            }
        },
        {
            "type": "Feature",
            "geometry": {
                "type": "Point",
                "coordinates": [
                    109.9475,
                    18.56796
                ]
            },
            "properties": {
                "city": "Lingshui County",
                "province": "Hainan",
                "country": "China",
                "total": 3
            }
        },
        {
            "type": "Feature",
            "geometry": {
                "type": "Point",
                "coordinates": [
                    109.7128,
                    19.80185
                ]
            },
            "properties": {
                "city": "Lingao County",
                "province": "Hainan",
                "country": "China",
                "total": 6
            }
        },
        {
            "type": "Feature",
            "geometry": {
                "type": "Point",
                "coordinates": [
                    102.6656,
                    29.92197
                ]
            },
            "properties": {
                "city": "Ya'an City",
                "province": "Sichuan",
                "country": "China",
                "total": 3
            }
        },
        {
            "type": "Feature",
            "geometry": {
                "type": "Point",
                "coordinates": [
                    104.4301,
                    31.13417
                ]
            },
            "properties": {
                "city": "Deyang City",
                "province": "Sichuan",
                "country": "China",
                "total": 8
            }
        },
        {
            "type": "Feature",
            "geometry": {
                "type": "Point",
                "coordinates": [
                    105.4711,
                    30.63331
                ]
            },
            "properties": {
                "city": "Suining City",
                "province": "Sichuan",
                "country": "China",
                "total": 13
            }
        },
        {
            "type": "Feature",
            "geometry": {
                "type": "Point",
                "coordinates": [
                    -0.5792,
                    44.8378
                ]
            },
            "properties": {
                "city": "Bordeaux",
                "province": "Nouvelle-Aquitaine",
                "country": "France",
                "total": 1
            }
        },
        {
            "type": "Feature",
            "geometry": {
                "type": "Point",
                "coordinates": [
                    2.3522,
                    48.8566
                ]
            },
            "properties": {
                "city": "Paris",
                "province": "Ile-de-France",
                "country": "France",
                "total": 6
            }
        },
        {
            "type": "Feature",
            "geometry": {
                "type": "Point",
                "coordinates": [
                    140.3856,
                    35.76528
                ]
            },
            "properties": {
                "city": "Narita Airport",
                "province": "Tokyo",
                "country": "Japan",
                "total": 1
            }
        },
        {
            "type": "Feature",
            "geometry": {
                "type": "Point",
                "coordinates": [
                    139.4468,
                    35.71145
                ]
            },
            "properties": {
                "city": "",
                "province": "Tokyo",
                "country": "Japan",
                "total": 27
            }
        },
        {
            "type": "Feature",
            "geometry": {
                "type": "Point",
                "coordinates": [
                    101.6869,
                    3.139
                ]
            },
            "properties": {
                "city": "Kuala Lumpur",
                "province": "Wilayah Persekutuan Kuala Lumpur",
                "country": "Malaysia",
                "total": 6
            }
        },
        {
            "type": "Feature",
            "geometry": {
                "type": "Point",
                "coordinates": [
                    85.324,
                    27.7172
                ]
            },
            "properties": {
                "city": "Kathmandu",
                "province": "",
                "country": "Nepal",
                "total": 1
            }
        },
        {
            "type": "Feature",
            "geometry": {
                "type": "Point",
                "coordinates": [
                    103.8345,
                    1.280224
                ]
            },
            "properties": {
                "city": "Singapore General Hospital",
                "province": "",
                "country": "Singapore",
                "total": 5
            }
        },
        {
            "type": "Feature",
            "geometry": {
                "type": "Point",
                "coordinates": [
                    103.8472,
                    1.322098
                ]
            },
            "properties": {
                "city": "National Centre for Infectious Diseases",
                "province": "",
                "country": "Singapore",
                "total": 46
            }
        },
        {
            "type": "Feature",
            "geometry": {
                "type": "Point",
                "coordinates": [
                    103.8151,
                    1.35346
                ]
            },
            "properties": {
                "city": "",
                "province": "",
                "country": "Singapore",
                "total": 7
            }
        },
        {
            "type": "Feature",
            "geometry": {
                "type": "Point",
                "coordinates": [
                    126.443389,
                    37.462026
                ]
            },
            "properties": {
                "city": "Incheon Airport",
                "province": "",
                "country": "South Korea",
                "total": 1
            }
        },
        {
            "type": "Feature",
            "geometry": {
                "type": "Point",
                "coordinates": [
                    126.790556,
                    37.558056
                ]
            },
            "properties": {
                "city": "Gimpo Airport",
                "province": "",
                "country": "South Korea",
                "total": 1
            }
        },
        {
            "type": "Feature",
            "geometry": {
                "type": "Point",
                "coordinates": [
                    121.2348,
                    25.0797
                ]
            },
            "properties": {
                "city": "Taoyuan International Airport",
                "province": "Taiwan",
                "country": "",
                "total": 1
            }
        },
        {
            "type": "Feature",
            "geometry": {
                "type": "Point",
                "coordinates": [
                    120.9559,
                    23.75947
                ]
            },
            "properties": {
                "city": "",
                "province": "Taiwan",
                "country": "",
                "total": 26
            }
        },
        {
            "type": "Feature",
            "geometry": {
                "type": "Point",
                "coordinates": [
                    100.1057,
                    13.92591
                ]
            },
            "properties": {
                "city": "",
                "province": "Nakhon Pathom",
                "country": "Thailand",
                "total": 1
            }
        },
        {
            "type": "Feature",
            "geometry": {
                "type": "Point",
                "coordinates": [
                    100.3943,
                    13.92265
                ]
            },
            "properties": {
                "city": "",
                "province": "Nonthaburi",
                "country": "Thailand",
                "total": 1
            }
        },
        {
            "type": "Feature",
            "geometry": {
                "type": "Point",
                "coordinates": [
                    100.5363,
                    13.76658
                ]
            },
            "properties": {
                "city": "Bangkok",
                "province": "Bangkok Metropolis",
                "country": "Thailand",
                "total": 4
            }
        },
        {
            "type": "Feature",
            "geometry": {
                "type": "Point",
                "coordinates": [
                    -87.6298,
                    41.8781
                ]
            },
            "properties": {
                "city": "Chicago",
                "province": "Illinois",
                "country": "United States",
                "total": 3
            }
        },
        {
            "type": "Feature",
            "geometry": {
                "type": "Point",
                "coordinates": [
                    -121.696,
                    48.04818
                ]
            },
            "properties": {
                "city": "Snohomish County",
                "province": "Washington",
                "country": "United States",
                "total": 31
            }
        },
        {
            "type": "Feature",
            "geometry": {
                "type": "Point",
                "coordinates": [
                    109.1967,
                    12.2388
                ]
            },
            "properties": {
                "city": "Nha Trang",
                "province": "Khanh Hoa",
                "country": "Vietnam",
                "total": 2
            }
        },
        {
            "type": "Feature",
            "geometry": {
                "type": "Point",
                "coordinates": [
                    103.3899,
                    2.050613
                ]
            },
            "properties": {
                "city": "",
                "province": "Johor",
                "country": "Malaysia",
                "total": 1
            }
        },
        {
            "type": "Feature",
            "geometry": {
                "type": "Point",
                "coordinates": [
                    147.0045,
                    -32.23834
                ]
            },
            "properties": {
                "city": "Sydney",
                "province": "New South Wales",
                "country": "Australia",
                "total": 11
            }
        },
        {
            "type": "Feature",
            "geometry": {
                "type": "Point",
                "coordinates": [
                    144.9631,
                    -37.8136
                ]
            },
            "properties": {
                "city": "Melbourne",
                "province": "Victoria",
                "country": "Australia",
                "total": 5
            }
        },
        {
            "type": "Feature",
            "geometry": {
                "type": "Point",
                "coordinates": [
                    -117.761,
                    33.70329
                ]
            },
            "properties": {
                "city": "Orange County",
                "province": "California",
                "country": "United States",
                "total": 4
            }
        },
        {
            "type": "Feature",
            "geometry": {
                "type": "Point",
                "coordinates": [
                    99.71357,
                    12.53025
                ]
            },
            "properties": {
                "city": "Hua Hin District",
                "province": "Prachuap Khiri Khan",
                "country": "Thailand",
                "total": 1
            }
        },
        {
            "type": "Feature",
            "geometry": {
                "type": "Point",
                "coordinates": [
                    103.8934,
                    1.395495
                ]
            },
            "properties": {
                "city": "Sengkang General Hospital",
                "province": "",
                "country": "Singapore",
                "total": 4
            }
        },
        {
            "type": "Feature",
            "geometry": {
                "type": "Point",
                "coordinates": [
                    101.0156,
                    15.17991
                ]
            },
            "properties": {
                "city": "",
                "province": "",
                "country": "Thailand",
                "total": 21
            }
        },
        {
            "type": "Feature",
            "geometry": {
                "type": "Point",
                "coordinates": [
                    126.9667,
                    37.56667
                ]
            },
            "properties": {
                "city": "Seoul",
                "province": "Seoul",
                "country": "South Korea",
                "total": 20
            }
        },
        {
            "type": "Feature",
            "geometry": {
                "type": "Point",
                "coordinates": [
                    -79.391815,
                    43.667256
                ]
            },
            "properties": {
                "city": "Toronto",
                "province": "Ontario",
                "country": "Canada",
                "total": 15
            }
        },
        {
            "type": "Feature",
            "geometry": {
                "type": "Point",
                "coordinates": [
                    113.8738,
                    22.93336
                ]
            },
            "properties": {
                "city": "Dongguan City",
                "province": "Guangdong",
                "country": "China",
                "total": 65
            }
        },
        {
            "type": "Feature",
            "geometry": {
                "type": "Point",
                "coordinates": [
                    116.5856,
                    23.33433
                ]
            },
            "properties": {
                "city": "Shantou City",
                "province": "Guangdong",
                "country": "China",
                "total": 24
            }
        },
        {
            "type": "Feature",
            "geometry": {
                "type": "Point",
                "coordinates": [
                    116.1185,
                    23.33707
                ]
            },
            "properties": {
                "city": "Jieyang City",
                "province": "Guangdong",
                "country": "China",
                "total": 7
            }
        },
        {
            "type": "Feature",
            "geometry": {
                "type": "Point",
                "coordinates": [
                    116.0807,
                    24.20478
                ]
            },
            "properties": {
                "city": "Meizhou City",
                "province": "Guangdong",
                "country": "China",
                "total": 16
            }
        },
        {
            "type": "Feature",
            "geometry": {
                "type": "Point",
                "coordinates": [
                    119.5133,
                    28.20076
                ]
            },
            "properties": {
                "city": "Lishui City",
                "province": "Zhejiang",
                "country": "China",
                "total": 16
            }
        },
        {
            "type": "Feature",
            "geometry": {
                "type": "Point",
                "coordinates": [
                    119.8686,
                    30.74578
                ]
            },
            "properties": {
                "city": "Huzhou City",
                "province": "Zhejiang",
                "country": "China",
                "total": 10
            }
        },
        {
            "type": "Feature",
            "geometry": {
                "type": "Point",
                "coordinates": [
                    113.8999,
                    33.65542
                ]
            },
            "properties": {
                "city": "Luohe City",
                "province": "Henan",
                "country": "China",
                "total": 33
            }
        },
        {
            "type": "Feature",
            "geometry": {
                "type": "Point",
                "coordinates": [
                    114.1505,
                    32.92419
                ]
            },
            "properties": {
                "city": "Zhumadian City",
                "province": "Henan",
                "country": "China",
                "total": 101
            }
        },
        {
            "type": "Feature",
            "geometry": {
                "type": "Point",
                "coordinates": [
                    113.0108,
                    33.79686
                ]
            },
            "properties": {
                "city": "Pingdingshan City",
                "province": "Henan",
                "country": "China",
                "total": 46
            }
        },
        {
            "type": "Feature",
            "geometry": {
                "type": "Point",
                "coordinates": [
                    114.3525,
                    35.87894
                ]
            },
            "properties": {
                "city": "Anyang City",
                "province": "Henan",
                "country": "China",
                "total": 41
            }
        },
        {
            "type": "Feature",
            "geometry": {
                "type": "Point",
                "coordinates": [
                    106.3081,
                    30.11512
                ]
            },
            "properties": {
                "city": "Hechuan District",
                "province": "Chongqing",
                "country": "China",
                "total": 14
            }
        },
        {
            "type": "Feature",
            "geometry": {
                "type": "Point",
                "coordinates": [
                    106.189,
                    29.56476
                ]
            },
            "properties": {
                "city": "Bishan District",
                "province": "Chongqing",
                "country": "China",
                "total": 9
            }
        },
        {
            "type": "Feature",
            "geometry": {
                "type": "Point",
                "coordinates": [
                    107.7139,
                    30.66124
                ]
            },
            "properties": {
                "city": "Liangping District",
                "province": "Chongqing",
                "country": "China",
                "total": 3
            }
        },
        {
            "type": "Feature",
            "geometry": {
                "type": "Point",
                "coordinates": [
                    108.7309,
                    31.88474
                ]
            },
            "properties": {
                "city": "Chengkou County",
                "province": "Chongqing",
                "country": "China",
                "total": 2
            }
        },
        {
            "type": "Feature",
            "geometry": {
                "type": "Point",
                "coordinates": [
                    107.823,
                    29.88972
                ]
            },
            "properties": {
                "city": "Fengdu County",
                "province": "Chongqing",
                "country": "China",
                "total": 8
            }
        },
        {
            "type": "Feature",
            "geometry": {
                "type": "Point",
                "coordinates": [
                    106.707,
                    29.62085
                ]
            },
            "properties": {
                "city": "Jiangbei District",
                "province": "Chongqing",
                "country": "China",
                "total": 22
            }
        },
        {
            "type": "Feature",
            "geometry": {
                "type": "Point",
                "coordinates": [
                    105.7388,
                    29.65237
                ]
            },
            "properties": {
                "city": "Dazu District",
                "province": "Chongqing",
                "country": "China",
                "total": 5
            }
        },
        {
            "type": "Feature",
            "geometry": {
                "type": "Point",
                "coordinates": [
                    106.0291,
                    29.81456
                ]
            },
            "properties": {
                "city": "Tongliang District",
                "province": "Chongqing",
                "country": "China",
                "total": 7
            }
        },
        {
            "type": "Feature",
            "geometry": {
                "type": "Point",
                "coordinates": [
                    111.9523,
                    28.57683
                ]
            },
            "properties": {
                "city": "Yiyang City",
                "province": "Hunan",
                "country": "China",
                "total": 40
            }
        },
        {
            "type": "Feature",
            "geometry": {
                "type": "Point",
                "coordinates": [
                    112.5737,
                    26.79602
                ]
            },
            "properties": {
                "city": "Hengyang City",
                "province": "Hunan",
                "country": "China",
                "total": 43
            }
        },
        {
            "type": "Feature",
            "geometry": {
                "type": "Point",
                "coordinates": [
                    111.5202,
                    29.30245
                ]
            },
            "properties": {
                "city": "Changde City",
                "province": "Hunan",
                "country": "China",
                "total": 61
            }
        },
        {
            "type": "Feature",
            "geometry": {
                "type": "Point",
                "coordinates": [
                    110.8759,
                    26.91525
                ]
            },
            "properties": {
                "city": "Shaoyang City",
                "province": "Hunan",
                "country": "China",
                "total": 83
            }
        },
        {
            "type": "Feature",
            "geometry": {
                "type": "Point",
                "coordinates": [
                    109.7267,
                    28.6973
                ]
            },
            "properties": {
                "city": "Xiangxi Prefecture",
                "province": "Hunan",
                "country": "China",
                "total": 7
            }
        },
        {
            "type": "Feature",
            "geometry": {
                "type": "Point",
                "coordinates": [
                    116.4106,
                    39.91129
                ]
            },
            "properties": {
                "city": "Dongcheng District",
                "province": "Beijing",
                "country": "China",
                "total": 3
            }
        },
        {
            "type": "Feature",
            "geometry": {
                "type": "Point",
                "coordinates": [
                    118.356,
                    31.62885
                ]
            },
            "properties": {
                "city": "Ma'anshan City",
                "province": "Anhui",
                "country": "China",
                "total": 30
            }
        },
        {
            "type": "Feature",
            "geometry": {
                "type": "Point",
                "coordinates": [
                    117.8965,
                    30.94467
                ]
            },
            "properties": {
                "city": "Tongling City",
                "province": "Anhui",
                "country": "China",
                "total": 25
            }
        },
        {
            "type": "Feature",
            "geometry": {
                "type": "Point",
                "coordinates": [
                    118.8534,
                    30.68815
                ]
            },
            "properties": {
                "city": "Xuancheng City",
                "province": "Anhui",
                "country": "China",
                "total": 5
            }
        },
        {
            "type": "Feature",
            "geometry": {
                "type": "Point",
                "coordinates": [
                    118.1027,
                    32.54543
                ]
            },
            "properties": {
                "city": "Chuzhou City",
                "province": "Anhui",
                "country": "China",
                "total": 4
            }
        },
        {
            "type": "Feature",
            "geometry": {
                "type": "Point",
                "coordinates": [
                    118.1285,
                    31.14997
                ]
            },
            "properties": {
                "city": "Wuhu City",
                "province": "Anhui",
                "country": "China",
                "total": 25
            }
        },
        {
            "type": "Feature",
            "geometry": {
                "type": "Point",
                "coordinates": [
                    117.2092,
                    33.86086
                ]
            },
            "properties": {
                "city": "Suzhou City",
                "province": "Anhui",
                "country": "China",
                "total": 32
            }
        },
        {
            "type": "Feature",
            "geometry": {
                "type": "Point",
                "coordinates": [
                    118.0713,
                    29.90755
                ]
            },
            "properties": {
                "city": "Huangshan City",
                "province": "Anhui",
                "country": "China",
                "total": 9
            }
        },